# - name: Prague
#   latitude: 50.0755
#   longitude: 14.4378
# - name: Taipei
#   latitude: 25.0330
#   longitude: 121.5654
- name: Fukuoka Airport
  latitude: 33.5859
  longitude: 130.4511
- name: Fukuoka
  latitude: 33.5904
  longitude: 130.4017
- name: Karatsu
  latitude: 33.450340
  longitude: 129.967934
- name: Ureshino Onsen
  latitude: 33.097
  longitude: 129.986
- name: Shimabara
  latitude: 32.788084
  longitude: 130.3705411
- name: Aso
  latitude: 32.9365
  longitude: 131.081
- name: Yufuin Onsen
  latitude: 33.262
  longitude: 131.356
- name: Matsuyama
  latitude: 33.8418
  longitude: 132.76169
- name: Hiroshima
  latitude: 34.39298
  longitude: 132.45256
- name: Imabari
  latitude: 34.07
  longitude: 133.0051
- name: Shikokuchuo
  latitude: 33.9796
  longitude: 133.543
- name: Miyoshi
  latitude: 34.0272
  longitude: 133.8107
- name: Takamatsu
  latitude: 34.3131
  longitude: 134.0559
- name: Tokushima
  latitude: 34.06338
  longitude: 134.55683
- name: Gojo
  latitude: 34.346
  longitude: 135.678
- name: Tokushima
  latitude: 34.06338
  longitude: 134.55683
- name: Gojo
  latitude: 34.346
  longitude: 135.678
  
